name	latitude	longitude	weight
Palm Springs	33.78364730369617	-116.46021872725468	21
Mission Viejo	33.60509999999999	-117.644	2
Calgary, AB	50.89019999999999	-113.9892	21
United States	38.0	-97.0	55
La Quinta	33.65790000000001	-116.27000000000001	6
Desert Hot Springs	33.96109999999999	-116.5017	1
Coquitlam, BC	49.266699999999986	-122.7833	10
Surrey, BC	49.1173	-122.82339999999999	3
Whittier	33.981599999999986	-118.0661	5
Pitt Meadows, BC	49.227300000000014	-122.6883	2
Danville	37.82159999999999	-122.0	1
San Diego	32.807199999999995	-117.1649	38
Livermore	37.68190000000001	-121.768	8
Portland	45.52340000000001	-122.6762	23
Australia	-37.88329999999999	145.1667	5
Newport Beach	33.6189	-117.929	3
Humble	29.945899999999995	-95.2752	2
Fountain Valley	33.71000000000001	-117.9478	1
Twentynine Palms	34.24379999999999	-115.8598	16
La Jolla	32.86670000000001	-117.2481	3
Cathedral City	33.82050000000001	-116.45859999999999	54
Palm Desert	33.705600000000004	-116.4083	5
Los Angeles	34.0522	-118.24369999999999	108
Santa Barbara	34.018400000000014	-119.7252	4
Sacramento	38.58160000000001	-121.4944	2
Bellflower	33.888000000000005	-118.13040000000001	1
Dixon	38.389999999999986	-121.818	4
Chandler	33.3201	-111.8739	3
New Westminster, BC	49.20070000000001	-122.9074	3
Loomis	38.81389999999999	-121.1662	3
Pasadena	34.16130000000001	-118.0895	3
CA	34.0522	-118.24369999999999	3
Rancho Palos Verdes	33.758399999999995	-118.3163	7
Santa Monica	34.03110000000001	-118.49000000000001	12
Santa Ana	33.76329999999999	-117.79419999999999	1
Fullerton	33.870299999999986	-117.9253	5
Gig Harbor	47.32929999999999	-122.5801	1
NY	40.71109999999999	-73.9469	4
Saskatoon, SK	52.10679999999999	-106.6552	14
Darien	41.0753	-73.481	7
Encinitas	33.050099999999986	-117.25280000000001	3
Salmon Arm, BC	50.69470000000001	-119.2915	1
Westbank, BC	49.837999999999994	-119.66669999999999	7
Huntsville	34.7304	-86.5861	8
Coachella	33.7021	-116.1712	3
Troutdale	45.52879999999999	-122.35900000000001	1
Romania	44.4333	26.099999999999994	1
Universal City	34.137400000000014	-118.3528	2
Highland Park	42.18899999999999	-87.8063	2
Murrieta	33.578900000000004	-117.1412	2
Oakville, ON	43.45429999999999	-79.6921	1
Richmond, BC	49.14670000000001	-123.1463	3
Fall City	47.58770000000001	-121.8805	1
East Orange	40.767300000000006	-74.2049	2
Vancouver, BC	49.27680000000001	-123.1469	18
Long Beach	33.766999999999996	-118.1892	7
Nanaimo, BC	49.17400000000001	-123.9422	9
Des Moines	41.6062	-93.6307	1
Delta, BC	49.079800000000006	-123.0882	5
Bucksport	44.64439999999999	-68.7402	3
Regina, SK	50.44999999999999	-104.6167	10
Laguna Beach	33.555800000000005	-117.7858	1
Monomoy Island	41.59979999999999	-70.5631	1
Oregon City	45.321799999999996	-122.5231	3
Kamloops, BC	50.65979999999999	-120.3837	7
Bellevue	47.62010000000001	-122.1408	2
Chicago	41.90379999999999	-87.6757	9
Scarborough, ON	43.75	-79.2	1
Seattle	47.610299999999995	-122.3341	15
Gardena	33.893699999999995	-118.2993	2
Logan	41.6412	-111.8966	1
Las Vegas	36.17500000000001	-115.1372	7
Torrance	33.83590000000001	-118.3406	7
New York	40.73169999999999	-73.9885	16
Diamond Bar	33.9958	-117.8189	1
Anaheim	33.831199999999995	-117.8673	23
Pottstown	40.26050000000001	-75.6155	12
Brooklyn	40.72800000000001	-73.9453	3
Riverside	33.95339999999999	-117.3962	9
Hillsboro	45.4443	-122.96629999999999	1
Mexico	32.5333	-117.0167	3
Colombia	4.6492000000000075	-74.0628	1
Tustin	33.74010000000001	-117.81960000000001	6
Peoria	33.580600000000004	-112.2374	1
North Hollywood	34.172200000000004	-118.37899999999999	2
Longview	46.193299999999994	-123.0548	2
San Pedro	33.7388	-118.29560000000001	1
Rogue River	42.54130000000001	-123.1046	7
San Mateo	37.5402	-122.3041	4
Dana Point	33.47819999999999	-117.7064	5
North Vancouver, BC	49.31110000000001	-123.0798	1
IL	41.849999999999994	-87.65	1
Shelton	47.2389	-123.20609999999999	1
Spokane	47.65969999999999	-117.4291	1
Cochrane, AB	51.18960000000001	-114.4774	1
Sun City	33.7415	-117.18889999999999	1
Menlo Park	37.4538	-122.1822	1
Winnipeg, MB	49.93780000000001	-97.1183	15
Victoria, BC	48.44489999999999	-123.3745	4
Sonora	37.98429999999999	-120.39	1
Rollingbay	47.664500000000004	-122.5101	4
Spring Valley	41.116299999999995	-74.046	3
Scottsdale	33.49119999999999	-111.9237	1
Temecula	33.53	-117.1035	11
Toronto, ON	43.6525	-79.3686	3
Langley, BC	49.16399999999999	-122.656	3
Alaska Peninsula Nwr	57.158800000000014	-154.07999999999998	1
Sheboygan Falls	43.7432	-87.8511	1
San Francisco	37.7441	-122.4839	18
Salt Lake City	40.76079999999999	-111.8911	1
Airdrie, AB	51.2816	-114.0153	1
Kelowna, BC	49.84200000000001	-119.49029999999999	7
Sherman Oaks	34.1463	-118.4293	3
Hood River	45.61189999999999	-121.5866	3
Aurora	39.7294	-104.8319	1
Saint Paul	44.89250000000001	-93.111	3
West Covina	34.06989999999999	-117.94210000000001	1
Beaverton	45.5222	-122.85929999999999	8
Excelsior	44.8989	-93.6257	6
Fort Mill	35.00739999999999	-80.9451	1
Issaquah	47.559500000000014	-122.00919999999999	1
Corona	33.87530000000001	-117.5664	8
Van Nuys	34.20230000000001	-118.4468	28
Bend	44.0744	-121.25739999999999	2
Coppell	32.9588	-96.9812	1
Lake Oswego	45.4093	-122.6799	4
Edmonton, AB	53.47819999999999	-113.5873	16
Birmingham	33.42009999999999	-86.7867	2
Springfield	37.218999999999994	-93.3176	16
United Kingdom	51.40780000000001	-0.2647000000000048	4
Ottawa, ON	45.359399999999994	-75.7523	2
West Hollywood	34.094300000000004	-118.3811	8
Mountain View	37.41919999999999	-122.0574	2
Placentia	33.8818	-117.8503	1
Encino	34.156800000000004	-118.5231	3
Rancho Cucamonga	34.14869999999999	-117.5118	7
Huntington Beach	33.71100000000001	-118.0438	5
Pico Rivera	33.98310000000001	-118.0967	25
Washington	38.96510000000001	-77.0654	1
Hastings	44.6849	-92.8849	1
Lakewood	33.85050000000001	-118.10990000000001	1
Santa Rosa	38.43799999999999	-122.6753	1
San Carlos	37.49799999999999	-122.2672	35
Yorkton, SK	51.202	-102.457	2
Canada	60.0	-95.0	4
Beverly Hills	34.099500000000006	-118.4143	3
Wichita	37.692200000000014	-97.3375	1
Aliso Viejo	33.57169999999999	-117.72890000000001	13
Saanichton, BC	48.566	-123.4579	1
Canmore, AB	51.08680000000001	-115.3384	4
Henderson	37.824900000000014	-87.5334	1
Granger	41.735000000000014	-86.1229	1
Hacienda Heights	34.002399999999994	-117.9757	1
Norwalk	33.90219999999999	-118.0817	1
Berkeley	37.8672	-122.2568	2
Shawnigan Lake, BC	48.65039999999999	-123.61449999999999	1
Escondido	33.22300000000001	-117.1069	1
Redondo Beach	33.83099999999999	-118.3875	2
Camano Island	48.162499999999994	-122.49539999999999	1
Turtle Lake	45.4135	-92.1792	1
Essex Junction	44.532700000000006	-73.058	5
New Zealand	-41.0	174.0	1
Cache Creek, BC	50.80000000000001	-121.3167	1
Santa Cruz	36.971300000000014	-121.9875	11
Las Cruces	32.3047	-106.6417	1
Irvine	33.7011	-117.797	4
West Linn	45.34219999999999	-122.6639	4
El Segundo	33.91640000000001	-118.4041	5
Port Moody, BC	49.270700000000005	-122.88300000000001	1
Boise	43.595200000000006	-116.1954	4
Bronx	40.84989999999999	-73.8769	1
Grand Prairie	32.74600000000001	-96.9978	4
Clarksville	36.55969999999999	-87.4097	1
Gem, AB	50.94999999999999	-112.1833	1
Billings	45.7833	-108.5007	2
Kanata, ON	45.33330000000001	-75.9	1
Solana Beach	32.995900000000006	-117.25710000000001	1
Buena Park	33.86750000000001	-117.9981	1
San Clemente	33.422799999999995	-117.62010000000001	7
AZ	33.44839999999999	-112.074	1
Klamath Falls	42.44399999999999	-122.17410000000001	2
Silverton	44.95439999999999	-122.71379999999999	1
La Mesa	32.783800000000014	-117.0179	1
Petaluma	38.23179999999999	-122.5618	5
Kalispell	48.1987	-114.3857	1
CO	39.73920000000001	-104.9847	1
Oakland	37.789800000000014	-122.2457	1
Chino Hills	33.94730000000001	-117.72890000000001	4
Hollister	36.62119999999999	-93.2155	1
Horseheads	42.212500000000006	-76.7868	1
Akron	41.14660000000001	-81.5645	3
Redlands	34.06139999999999	-117.1734	22
San Jose	37.32390000000001	-121.9144	3
Manhattan Beach	33.88929999999999	-118.40100000000001	1
Chino	33.98689999999999	-117.6555	1
Philadelphia	40.04910000000001	-75.2281	18
Stanford	37.4178	-122.172	5
Nampa	43.60079999999999	-116.6103	1
Yelm	46.87190000000001	-122.5737	4
Madison	43.06389999999999	-89.3145	1
Atlanta	33.748999999999995	-84.388	110
Vancouver	45.6387	-122.66149999999999	1
New Berlin	42.9734	-88.1031	3
Midland, ON	44.7542	-79.9005	1
Salem	44.9023	-123.06620000000001	7
Corvallis	44.56460000000001	-123.262	1
OR	45.52340000000001	-122.6762	1
White Rock, BC	49.02680000000001	-122.8369	1
Hawthorne	33.91290000000001	-118.34389999999999	4
Castlegar, BC	49.3167	-117.66669999999999	1
Redmond	47.68010000000001	-122.1206	1
Chilliwack, BC	49.14089999999999	-121.962	1
San Gabriel	34.0891	-118.0924	14
Palmdale	34.52000000000001	-118.0835	1
South Lake Tahoe	38.84790000000001	-120.0139	2
Bothell	47.74770000000001	-122.20439999999999	2
Lewiston	46.16829999999999	-116.9204	4
Indio	33.72059999999999	-116.2156	6
Carlsbad	33.135700000000014	-117.3019	2
Fort Collins	40.67359999999999	-104.9434	3
Malibu	34.06970000000001	-118.8177	1
Sechelt, BC	49.4667	-123.7667	1
Vashon	47.42060000000001	-122.45089999999999	1
Theodore	30.503500000000003	-88.1432	18
Compton	33.89590000000001	-118.2201	8
Colonsay, SK	51.9667	-105.8667	1
Sylmar	34.307799999999986	-118.4493	6
Orlando	28.451699999999988	-81.4653	13
Denver	39.676199999999994	-104.887	3
Algonquin	42.161699999999996	-88.3285	1
Perris	33.7825	-117.2287	6
Sebastopol	38.4032	-122.86330000000001	1
San Marcos	33.143400000000014	-117.1661	27
Parksville, BC	49.32329999999999	-124.3227	4
Streamwood	42.02090000000001	-88.1782	1
Comox, BC	49.672799999999995	-124.947	9
Happy Valley, NL	53.30000000000001	-60.3	1
Lombard	41.877999999999986	-88.0163	1
Martinsville	36.72659999999999	-79.8667	3
Sioux City	42.52369999999999	-96.4363	1
Metairie	29.984100000000012	-90.1529	1
Fallbrook	33.3989	-117.2957	12
South Yarmouth	41.6713	-70.1916	1
Cleveland	41.47370000000001	-81.5798	6
Moreno Valley	33.92240000000001	-117.2476	1
Burbank	34.17670000000001	-118.31049999999999	25
Evanston	42.05619999999999	-87.7011	1
Yorba Linda	33.89240000000001	-117.78790000000001	1
Overland Park	38.8998	-94.7052	1
Marietta	33.95259999999999	-84.5499	2
Buffalo Grove	42.1695	-87.9588	3
Playa Del Rey	33.94540000000001	-118.43979999999999	1
Rancho Santa Margarita	33.6199	-117.61189999999999	10
Canton	40.83760000000001	-81.3935	1
Pleasanton	37.654300000000006	-121.8552	2
Lawndale	33.88720000000001	-118.3548	1
Newport	39.091499999999996	-84.4958	3
Davis	38.4829	-121.63980000000001	1
New Haven	41.30770000000001	-72.9268	2
Glendale	34.17179999999999	-118.2915	7
Maple Ridge, BC	49.20070000000001	-122.66409999999999	1
Gibsons, BC	49.400000000000006	-123.5	1
Minneapolis	44.82669999999999	-93.3132	1
Morris Plains	40.84469999999999	-74.4781	1
Costa Mesa	33.64859999999999	-117.9186	1
Nelson, BC	49.48320000000001	-117.3031	1
Elizabethtown	40.168000000000006	-76.6093	4
San Dimas	34.106599999999986	-117.815	1
Omaha	41.2987	-96.0467	1
Hayward	37.668800000000005	-122.08080000000001	1
Agoura Hills	34.1267	-118.76480000000001	2
London, ON	42.96270000000001	-81.2948	1
Brea	33.92689999999999	-117.8612	2
Brentwood	37.87540000000001	-121.6868	21
